{
  "advanced": [
    {
      "name": "Madison",
      "country": "United States",
      "continent": "North America",
      "population": 258366,
      "is_capital": true,
      "city_rank": 82,
      "lat": 43.0731,
      "lon": -89.4012,
      "airport_codes": ["MSN"],
      "landmarks": ["Wisconsin State Capitol", "University of Wisconsin", "Olbrich Botanical Gardens"],
      "region": "Midwest"
    },
    {
      "name": "Providence",
      "country": "United States",
      "continent": "North America",
      "population": 190934,
      "is_capital": true,
      "city_rank": 134,
      "lat": 41.8240,
      "lon": -71.4128,
      "airport_codes": ["PVD"],
      "landmarks": ["WaterFire", "Roger Williams Park", "Providence Athenaeum"],
      "region": "Northeast"
    },
    {
      "name": "Richmond",
      "country": "United States",
      "continent": "North America",
      "population": 226610,
      "is_capital": true,
      "city_rank": 100,
      "lat": 37.5407,
      "lon": -77.4360,
      "airport_codes": ["RIC"],
      "landmarks": ["Virginia State Capitol", "Monument Avenue", "Maymont Park"],
      "region": "Southeast"
    },
    {
      "name": "Boise",
      "country": "United States",
      "continent": "North America",
      "population": 235684,
      "is_capital": true,
      "city_rank": 97,
      "lat": 43.6150,
      "lon": -116.2023,
      "airport_codes": ["BOI"],
      "landmarks": ["Boise River Greenbelt", "Idaho State Capitol", "Old Idaho Penitentiary"],
      "region": "Mountain West"
    },
    {
      "name": "Reno",
      "country": "United States",
      "continent": "North America",
      "population": 255601,
      "is_capital": false,
      "city_rank": 81,
      "lat": 39.5296,
      "lon": -119.8138,
      "airport_codes": ["RNO"],
      "landmarks": ["Reno Arch", "National Automobile Museum", "Lake Tahoe"],
      "region": "Mountain West"
    },
    {
      "name": "Eugene",
      "country": "United States",
      "continent": "North America",
      "population": 168916,
      "is_capital": false,
      "city_rank": 156,
      "lat": 44.0521,
      "lon": -123.0868,
      "airport_codes": ["EUG"],
      "landmarks": ["University of Oregon", "Hendricks Park", "Skinner Butte"],
      "region": "West Coast"
    },
    {
      "name": "Spokane",
      "country": "United States",
      "continent": "North America",
      "population": 228989,
      "is_capital": false,
      "city_rank": 99,
      "lat": 47.6588,
      "lon": -117.4260,
      "airport_codes": ["GEG"],
      "landmarks": ["Riverfront Park", "Manito Park", "Spokane Falls"],
      "region": "Northwest"
    },
    {
      "name": "Des Moines",
      "country": "United States",
      "continent": "North America",
      "population": 214133,
      "is_capital": true,
      "city_rank": 105,
      "lat": 41.5868,
      "lon": -93.6250,
      "airport_codes": ["DSM"],
      "landmarks": ["Iowa State Capitol", "Pappajohn Sculpture Park", "Des Moines Art Center"],
      "region": "Midwest"
    },
    {
      "name": "Knoxville",
      "country": "United States",
      "continent": "North America",
      "population": 190740,
      "is_capital": false,
      "city_rank": 135,
      "lat": 35.9606,
      "lon": -83.9207,
      "airport_codes": ["TYS"],
      "landmarks": ["World's Fair Park", "Market Square", "Ijams Nature Center"],
      "region": "Southeast"
    },
    {
      "name": "Charleston",
      "country": "United States",
      "continent": "North America",
      "population": 150227,
      "is_capital": false,
      "city_rank": 178,
      "lat": 32.7765,
      "lon": -79.9311,
      "airport_codes": ["CHS"],
      "landmarks": ["Historic District", "Rainbow Row", "Fort Sumter"],
      "region": "Southeast"
    },
    {
      "name": "Savannah",
      "country": "United States",
      "continent": "North America",
      "population": 147780,
      "is_capital": false,
      "city_rank": 182,
      "lat": 32.0809,
      "lon": -81.0912,
      "airport_codes": ["SAV"],
      "landmarks": ["Historic District", "Forsyth Park", "River Street"],
      "region": "Southeast"
    },
    {
      "name": "Syracuse",
      "country": "United States",
      "continent": "North America",
      "population": 148620,
      "is_capital": false,
      "city_rank": 183,
      "lat": 43.0481,
      "lon": -76.1474,
      "airport_codes": ["SYR"],
      "landmarks": ["Syracuse University", "Erie Canal Museum", "Destiny USA"],
      "region": "Northeast"
    },
    {
      "name": "Albany",
      "country": "United States",
      "continent": "North America",
      "population": 100826,
      "is_capital": true,
      "city_rank": 267,
      "lat": 42.6526,
      "lon": -73.7562,
      "airport_codes": ["ALB"],
      "landmarks": ["New York State Capitol", "Empire State Plaza", "Washington Park"],
      "region": "Northeast"
    },
    {
      "name": "Grand Rapids",
      "country": "United States",
      "continent": "North America",
      "population": 198829,
      "is_capital": false,
      "city_rank": 140,
      "lat": 42.9634,
      "lon": -85.6681,
      "airport_codes": ["GRR"],
      "landmarks": ["Frederik Meijer Gardens", "Grand Rapids Art Museum", "Heritage Hill"],
      "region": "Midwest"
    },
    {
      "name": "Little Rock",
      "country": "United States",
      "continent": "North America",
      "population": 197312,
      "is_capital": true,
      "city_rank": 141,
      "lat": 34.7465,
      "lon": -92.2896,
      "airport_codes": ["LIT"],
      "landmarks": ["Little Rock Central High School", "River Market District", "Pinnacle Mountain"],
      "region": "South"
    },
    {
      "name": "Saskatoon",
      "country": "Canada",
      "continent": "North America",
      "population": 273010,
      "is_capital": false,
      "city_rank": 12,
      "lat": 52.1332,
      "lon": -106.6700,
      "airport_codes": ["YXE"],
      "landmarks": ["Meewasin Valley", "Wanuskewin Heritage Park", "University of Saskatchewan"],
      "region": "Saskatchewan"
    },
    {
      "name": "Regina",
      "country": "Canada",
      "continent": "North America",
      "population": 215106,
      "is_capital": true,
      "city_rank": 18,
      "lat": 50.4452,
      "lon": -104.6189,
      "airport_codes": ["YQR"],
      "landmarks": ["Saskatchewan Legislative Building", "Wascana Centre", "Royal Saskatchewan Museum"],
      "region": "Saskatchewan"
    },
    {
      "name": "St. John's",
      "country": "Canada",
      "continent": "North America",
      "population": 108860,
      "is_capital": true,
      "city_rank": 20,
      "lat": 47.5615,
      "lon": -52.7126,
      "airport_codes": ["YYT"],
      "landmarks": ["Signal Hill", "Cape Spear", "George Street"],
      "region": "Newfoundland and Labrador"
    },
    {
      "name": "Windsor",
      "country": "Canada",
      "continent": "North America",
      "population": 230563,
      "is_capital": false,
      "city_rank": 15,
      "lat": 42.3149,
      "lon": -83.0364,
      "airport_codes": ["YQG"],
      "landmarks": ["Caesars Windsor", "Dieppe Gardens", "Ojibway Park"],
      "region": "Ontario"
    },
    {
      "name": "Kelowna",
      "country": "Canada",
      "continent": "North America",
      "population": 144576,
      "is_capital": false,
      "city_rank": 22,
      "lat": 49.8877,
      "lon": -119.4965,
      "airport_codes": ["YLW"],
      "landmarks": ["Okanagan Lake", "Myra Canyon Trestles", "Mission Hill Family Estate"],
      "region": "British Columbia"
    },
    {
      "name": "Campeche",
      "country": "Mexico",
      "continent": "North America",
      "population": 249623,
      "is_capital": true,
      "city_rank": 9,
      "lat": 19.8301,
      "lon": -90.5349,
      "airport_codes": ["CPE"],
      "landmarks": ["Historic Fortified Town", "Campeche Cathedral", "Edzná Archaeological Site"],
      "region": "Campeche"
    },
    {
      "name": "Colima",
      "country": "Mexico",
      "continent": "North America",
      "population": 146965,
      "is_capital": true,
      "city_rank": 10,
      "lat": 19.2433,
      "lon": -103.7249,
      "airport_codes": ["CLQ"],
      "landmarks": ["Colima Cathedral", "Museo Regional de Historia", "Volcán de Colima"],
      "region": "Colima"
    },
    {
      "name": "Pachuca",
      "country": "Mexico",
      "continent": "North America",
      "population": 267751,
      "is_capital": true,
      "city_rank": 11,
      "lat": 20.1104,
      "lon": -98.7324,
      "airport_codes": ["TUX"],
      "landmarks": ["Reloj Monumental", "Museo de Minería", "Parque David Ben Gurión"],
      "region": "Hidalgo"
    },
    {
      "name": "Tepic",
      "country": "Mexico",
      "continent": "North America",
      "population": 371387,
      "is_capital": true,
      "city_rank": 12,
      "lat": 21.5083,
      "lon": -104.8947,
      "airport_codes": ["TPQ"],
      "landmarks": ["Catedral de Tepic", "Plaza de Armas", "Museo Regional de Nayarit"],
      "region": "Nayarit"
    },
    {
      "name": "Chetumal",
      "country": "Mexico",
      "continent": "North America",
      "population": 169028,
      "is_capital": true,
      "city_rank": 13,
      "lat": 18.5141,
      "lon": -88.3038,
      "airport_codes": ["CTM"],
      "landmarks": ["Museo de la Cultura Maya", "Plaza de Armas", "Bahía de Chetumal"],
      "region": "Quintana Roo"
    },
    {
      "name": "Quetzaltenango",
      "country": "Guatemala",
      "continent": "North America",
      "population": 180706,
      "is_capital": false,
      "city_rank": 2,
      "lat": 14.8347,
      "lon": -91.5181,
      "airport_codes": ["AAZ"],
      "landmarks": ["Central Park", "Casa de la Cultura", "Cerro El Baúl"],
      "region": "Quetzaltenango"
    },
    {
      "name": "Santa Ana",
      "country": "El Salvador",
      "continent": "North America",
      "population": 245421,
      "is_capital": false,
      "city_rank": 2,
      "lat": 13.9945,
      "lon": -89.5598,
      "airport_codes": ["SAL"],
      "landmarks": ["Catedral de Santa Ana", "Teatro de Santa Ana", "Parque Libertad"],
      "region": "Santa Ana"
    },
    {
      "name": "Heredia",
      "country": "Costa Rica",
      "continent": "North America",
      "population": 123616,
      "is_capital": false,
      "city_rank": 4,
      "lat": 9.9985,
      "lon": -84.1168,
      "airport_codes": ["SJO"],
      "landmarks": ["Parque Central", "Iglesia de la Inmaculada", "Universidad Nacional"],
      "region": "Heredia"
    },
    {
      "name": "David",
      "country": "Panama",
      "continent": "North America",
      "population": 144858,
      "is_capital": false,
      "city_rank": 2,
      "lat": 8.4333,
      "lon": -82.4333,
      "airport_codes": ["DAV"],
      "landmarks": ["Parque Cervantes", "Catedral de San José", "Mercado Público"],
      "region": "Chiriquí"
    },
    {
      "name": "Nassau",
      "country": "Bahamas",
      "continent": "North America",
      "population": 274400,
      "is_capital": true,
      "city_rank": 1,
      "lat": 25.0343,
      "lon": -77.3963,
      "airport_codes": ["NAS"],
      "landmarks": ["Parliament Square", "Queen's Staircase", "Fort Charlotte"],
      "region": "New Providence"
    },
    {
      "name": "York",
      "country": "United Kingdom",
      "continent": "Europe",
      "population": 208200,
      "is_capital": false,
      "city_rank": 11,
      "lat": 53.9597,
      "lon": -1.0793,
      "airport_codes": ["LBA"],
      "landmarks": ["York Minster", "The Shambles", "York Castle Museum"],
      "region": "England"
    },
    {
      "name": "Norwich",
      "country": "United Kingdom",
      "continent": "Europe",
      "population": 195000,
      "is_capital": false,
      "city_rank": 12,
      "lat": 52.6309,
      "lon": 1.2974,
      "airport_codes": ["NWI"],
      "landmarks": ["Norwich Cathedral", "Norwich Castle", "Elm Hill"],
      "region": "England"
    },
    {
      "name": "Oxford",
      "country": "United Kingdom",
      "continent": "Europe",
      "population": 152000,
      "is_capital": false,
      "city_rank": 13,
      "lat": 51.7520,
      "lon": -1.2577,
      "airport_codes": ["OXF"],
      "landmarks": ["University of Oxford", "Christ Church", "Bodleian Library"],
      "region": "England"
    },
    {
      "name": "Cambridge",
      "country": "United Kingdom",
      "continent": "Europe",
      "population": 145700,
      "is_capital": false,
      "city_rank": 14,
      "lat": 52.2053,
      "lon": 0.1218,
      "airport_codes": ["CBG"],
      "landmarks": ["University of Cambridge", "King's College Chapel", "River Cam"],
      "region": "England"
    },
    {
      "name": "Dundee",
      "country": "United Kingdom",
      "continent": "Europe",
      "population": 148210,
      "is_capital": false,
      "city_rank": 15,
      "lat": 56.4620,
      "lon": -2.9707,
      "airport_codes": ["DND"],
      "landmarks": ["Discovery Point", "Dundee Law", "V&A Dundee"],
      "region": "Scotland"
    },
    {
      "name": "Dijon",
      "country": "France",
      "continent": "Europe",
      "population": 156920,
      "is_capital": false,
      "city_rank": 12,
      "lat": 47.3220,
      "lon": 5.0415,
      "airport_codes": ["DIJ"],
      "landmarks": ["Palais des Ducs", "Notre-Dame de Dijon", "Musée des Beaux-Arts"],
      "region": "Bourgogne-Franche-Comté"
    },
    {
      "name": "Reims",
      "country": "France",
      "continent": "Europe",
      "population": 182460,
      "is_capital": false,
      "city_rank": 13,
      "lat": 49.2583,
      "lon": 4.0317,
      "airport_codes": ["RHE"],
      "landmarks": ["Notre-Dame de Reims", "Palais du Tau", "Champagne Houses"],
      "region": "Grand Est"
    },
    {
      "name": "Grenoble",
      "country": "France",
      "continent": "Europe",
      "population": 160779,
      "is_capital": false,
      "city_rank": 14,
      "lat": 45.1885,
      "lon": 5.7245,
      "airport_codes": ["GNB"],
      "landmarks": ["Bastille", "Musée de Grenoble", "Téléphérique"],
      "region": "Auvergne-Rhône-Alpes"
    },
    {
      "name": "Nîmes",
      "country": "France",
      "continent": "Europe",
      "population": 150610,
      "is_capital": false,
      "city_rank": 15,
      "lat": 43.8367,
      "lon": 4.3601,
      "airport_codes": ["FNI"],
      "landmarks": ["Arena of Nîmes", "Maison Carrée", "Pont du Gard"],
      "region": "Occitanie"
    },
    {
      "name": "Angers",
      "country": "France",
      "continent": "Europe",
      "population": 155850,
      "is_capital": false,
      "city_rank": 16,
      "lat": 47.4736,
      "lon": -0.5519,
      "airport_codes": ["ANE"],
      "landmarks": ["Château d'Angers", "Cathédrale Saint-Maurice", "Apocalypse Tapestry"],
      "region": "Pays de la Loire"
    },
    {
      "name": "Metz",
      "country": "France",
      "continent": "Europe",
      "population": 118489,
      "is_capital": false,
      "city_rank": 17,
      "lat": 49.1193,
      "lon": 6.1757,
      "airport_codes": ["ETZ"],
      "landmarks": ["Cathédrale Saint-Étienne", "Centre Pompidou-Metz", "Porte des Allemands"],
      "region": "Grand Est"
    },
    {
      "name": "Clermont-Ferrand",
      "country": "France",
      "continent": "Europe",
      "population": 147865,
      "is_capital": false,
      "city_rank": 18,
      "lat": 45.7772,
      "lon": 3.0870,
      "airport_codes": ["CFE"],
      "landmarks": ["Cathédrale Notre-Dame", "Place de Jaude", "Puy de Dôme"],
      "region": "Auvergne-Rhône-Alpes"
    },
    {
      "name": "Besançon",
      "country": "France",
      "continent": "Europe",
      "population": 116952,
      "is_capital": false,
      "city_rank": 19,
      "lat": 47.2376,
      "lon": 6.0241,
      "airport_codes": ["BES"],
      "landmarks": ["Citadel of Besançon", "Cathédrale Saint-Jean", "Porte Noire"],
      "region": "Bourgogne-Franche-Comté"
    },
    {
      "name": "Heidelberg",
      "country": "Germany",
      "continent": "Europe",
      "population": 160355,
      "is_capital": false,
      "city_rank": 6,
      "lat": 49.3988,
      "lon": 8.6724,
      "airport_codes": ["FRA"],
      "landmarks": ["Heidelberg Castle", "Old Bridge", "University of Heidelberg"],
      "region": "Baden-Württemberg"
    },
    {
      "name": "Freiburg im Breisgau",
      "country": "Germany",
      "continent": "Europe",
      "population": 230940,
      "is_capital": false,
      "city_rank": 7,
      "lat": 47.9990,
      "lon": 7.8421,
      "airport_codes": ["FRA"],
      "landmarks": ["Freiburg Minster", "Schlossberg", "Augustiner Museum"],
      "region": "Baden-Württemberg"
    },
    {
      "name": "Regensburg",
      "country": "Germany",
      "continent": "Europe",
      "population": 152610,
      "is_capital": false,
      "city_rank": 8,
      "lat": 49.0134,
      "lon": 12.1016,
      "airport_codes": ["MUC"],
      "landmarks": ["Regensburg Cathedral", "Stone Bridge", "Old Town Hall"],
      "region": "Bavaria"
    },
    {
      "name": "Trier",
      "country": "Germany",
      "continent": "Europe",
      "population": 110570,
      "is_capital": false,
      "city_rank": 9,
      "lat": 49.7557,
      "lon": 6.6394,
      "airport_codes": ["FRA"],
      "landmarks": ["Porta Nigra", "Trier Cathedral", "Imperial Baths"],
      "region": "Rhineland-Palatinate"
    },
    {
      "name": "Aachen",
      "country": "Germany",
      "continent": "Europe",
      "population": 249070,
      "is_capital": false,
      "city_rank": 10,
      "lat": 50.7753,
      "lon": 6.0839,
      "airport_codes": ["FRA"],
      "landmarks": ["Aachen Cathedral", "Elisenbrunnen", "Rathaus"],
      "region": "North Rhine-Westphalia"
    },
    {
      "name": "Parma",
      "country": "Italy",
      "continent": "Europe",
      "population": 195687,
      "is_capital": false,
      "city_rank": 5,
      "lat": 44.8015,
      "lon": 10.3279,
      "airport_codes": ["PMF"],
      "landmarks": ["Parma Cathedral", "Baptistery", "Teatro Regio"],
      "region": "Emilia-Romagna"
    },
    {
      "name": "Modena",
      "country": "Italy",
      "continent": "Europe",
      "population": 185717,
      "is_capital": false,
      "city_rank": 6,
      "lat": 44.6471,
      "lon": 10.9252,
      "airport_codes": ["PMF"],
      "landmarks": ["Modena Cathedral", "Piazza Grande", "Ducal Palace"],
      "region": "Emilia-Romagna"
    },
    {
      "name": "Ferrara",
      "country": "Italy",
      "continent": "Europe",
      "population": 132009,
      "is_capital": false,
      "city_rank": 7,
      "lat": 44.8378,
      "lon": 11.6202,
      "airport_codes": ["PMF"],
      "landmarks": ["Castello Estense", "Ferrara Cathedral", "Palazzo dei Diamanti"],
      "region": "Emilia-Romagna"
    },
    {
      "name": "Ravenna",
      "country": "Italy",
      "continent": "Europe",
      "population": 159115,
      "is_capital": false,
      "city_rank": 8,
      "lat": 44.4184,
      "lon": 12.2035,
      "airport_codes": ["PMF"],
      "landmarks": ["Basilica of San Vitale", "Mausoleum of Galla Placidia", "Dante's Tomb"],
      "region": "Emilia-Romagna"
    },
    {
      "name": "Trento",
      "country": "Italy",
      "continent": "Europe",
      "population": 118896,
      "is_capital": true,
      "city_rank": 9,
      "lat": 46.0669,
      "lon": 11.1211,
      "airport_codes": ["BZO"],
      "landmarks": ["Piazza Duomo", "Castello del Buonconsiglio", "MUSE"],
      "region": "Trentino-Alto Adige"
    },
    {
      "name": "Bolzano",
      "country": "Italy",
      "continent": "Europe",
      "population": 107436,
      "is_capital": false,
      "city_rank": 10,
      "lat": 46.4983,
      "lon": 11.3548,
      "airport_codes": ["BZO"],
      "landmarks": ["Piazza Walther", "South Tyrol Museum of Archaeology", "Runkelstein Castle"],
      "region": "Trentino-Alto Adige"
    },
    {
      "name": "Salamanca",
      "country": "Spain",
      "continent": "Europe",
      "population": 144436,
      "is_capital": false,
      "city_rank": 8,
      "lat": 40.9645,
      "lon": -5.6630,
      "airport_codes": ["MAD"],
      "landmarks": ["University of Salamanca", "Plaza Mayor", "Cathedral"],
      "region": "Castile and León"
    },
    {
      "name": "Santander",
      "country": "Spain",
      "continent": "Europe",
      "population": 172044,
      "is_capital": true,
      "city_rank": 9,
      "lat": 43.4623,
      "lon": -3.8099,
      "airport_codes": ["SDR"],
      "landmarks": ["El Sardinero Beach", "Magdalena Palace", "Cathedral"],
      "region": "Cantabria"
    },
    {
      "name": "Cádiz",
      "country": "Spain",
      "continent": "Europe",
      "population": 116979,
      "is_capital": false,
      "city_rank": 10,
      "lat": 36.5297,
      "lon": -6.2927,
      "airport_codes": ["XRY"],
      "landmarks": ["Cádiz Cathedral", "Tavira Tower", "Playa de la Caleta"],
      "region": "Andalusia"
    },
    {
      "name": "Tarragona",
      "country": "Spain",
      "continent": "Europe",
      "population": 134515,
      "is_capital": false,
      "city_rank": 11,
      "lat": 41.1187,
      "lon": 1.2453,
      "airport_codes": ["BCN"],
      "landmarks": ["Roman Amphitheatre", "Tarragona Cathedral", "Roman Walls"],
      "region": "Catalonia"
    },
    {
      "name": "Kanazawa",
      "country": "Japan",
      "continent": "Asia",
      "population": 465699,
      "is_capital": false,
      "city_rank": 6,
      "lat": 36.5613,
      "lon": 136.6562,
      "airport_codes": ["KMQ"],
      "landmarks": ["Kenroku-en", "Kanazawa Castle", "Higashi Chaya District"],
      "region": "Ishikawa Prefecture"
    },
    {
      "name": "Toyama",
      "country": "Japan",
      "continent": "Asia",
      "population": 415844,
      "is_capital": false,
      "city_rank": 7,
      "lat": 36.6953,
      "lon": 137.2113,
      "airport_codes": ["TOY"],
      "landmarks": ["Toyama Castle", "Kureha Hills", "Toyama Bay"],
      "region": "Toyama Prefecture"
    },
    {
      "name": "Nagano",
      "country": "Japan",
      "continent": "Asia",
      "population": 377598,
      "is_capital": false,
      "city_rank": 8,
      "lat": 36.6489,
      "lon": 138.1950,
      "airport_codes": ["NGO"],
      "landmarks": ["Zenko-ji", "Nagano Olympic Memorial", "Togakushi Shrine"],
      "region": "Nagano Prefecture"
    },
    {
      "name": "Nara",
      "country": "Japan",
      "continent": "Asia",
      "population": 359666,
      "is_capital": false,
      "city_rank": 9,
      "lat": 34.6851,
      "lon": 135.8048,
      "airport_codes": ["UKY"],
      "landmarks": ["Todai-ji", "Nara Park", "Kasuga Taisha"],
      "region": "Nara Prefecture"
    },
    {
      "name": "Aomori",
      "country": "Japan",
      "continent": "Asia",
      "population": 287353,
      "is_capital": false,
      "city_rank": 10,
      "lat": 40.8243,
      "lon": 140.7404,
      "airport_codes": ["AOJ"],
      "landmarks": ["Aomori Bay Bridge", "Nebuta Museum", "Sannai-Maruyama Site"],
      "region": "Aomori Prefecture"
    },
    {
      "name": "Akita",
      "country": "Japan",
      "continent": "Asia",
      "population": 315814,
      "is_capital": false,
      "city_rank": 11,
      "lat": 39.7200,
      "lon": 140.1025,
      "airport_codes": ["AXT"],
      "landmarks": ["Akita Castle", "Kubota Castle", "Akita Museum of Art"],
      "region": "Akita Prefecture"
    },
    {
      "name": "Takamatsu",
      "country": "Japan",
      "continent": "Asia",
      "population": 420748,
      "is_capital": false,
      "city_rank": 12,
      "lat": 34.3401,
      "lon": 134.0433,
      "airport_codes": ["TAK"],
      "landmarks": ["Ritsurin Garden", "Takamatsu Castle", "Seto Inland Sea"],
      "region": "Kagawa Prefecture"
    },
    {
      "name": "Jeju City",
      "country": "South Korea",
      "continent": "Asia",
      "population": 486306,
      "is_capital": false,
      "city_rank": 3,
      "lat": 33.4996,
      "lon": 126.5312,
      "airport_codes": ["CJU"],
      "landmarks": ["Hallasan", "Seongsan Ilchulbong", "Manjanggul Cave"],
      "region": "Jeju Province"
    },
    {
      "name": "Chuncheon",
      "country": "South Korea",
      "continent": "Asia",
      "population": 281596,
      "is_capital": true,
      "city_rank": 4,
      "lat": 37.8813,
      "lon": 127.7300,
      "airport_codes": ["ICN"],
      "landmarks": ["Chuncheon Myeongdong Dakgalbi Street", "Soyang Lake", "Nami Island"],
      "region": "Gangwon Province"
    },
    {
      "name": "Gyeongju",
      "country": "South Korea",
      "continent": "Asia",
      "population": 264091,
      "is_capital": false,
      "city_rank": 5,
      "lat": 35.8562,
      "lon": 129.2247,
      "airport_codes": ["PUS"],
      "landmarks": ["Bulguksa", "Seokguram", "Cheomseongdae"],
      "region": "Gyeongsangbuk-do"
    },
    {
      "name": "Pohang",
      "country": "South Korea",
      "continent": "Asia",
      "population": 520305,
      "is_capital": false,
      "city_rank": 6,
      "lat": 36.0320,
      "lon": 129.3650,
      "airport_codes": ["PUS"],
      "landmarks": ["Homigot Sunrise Square", "Pohang Steel Bridge", "Yeongildae Beach"],
      "region": "Gyeongsangbuk-do"
    },
    {
      "name": "Hualien",
      "country": "Taiwan",
      "continent": "Asia",
      "population": 100968,
      "is_capital": false,
      "city_rank": 2,
      "lat": 23.9871,
      "lon": 121.6011,
      "airport_codes": ["HUN"],
      "landmarks": ["Taroko Gorge", "Qixingtan Beach", "Hualien Night Market"],
      "region": "Hualien County"
    },
    {
      "name": "Taitung",
      "country": "Taiwan",
      "continent": "Asia",
      "population": 107720,
      "is_capital": false,
      "city_rank": 3,
      "lat": 22.7583,
      "lon": 121.1444,
      "airport_codes": ["TTT"],
      "landmarks": ["Green Island", "Orchid Island", "Taitung Forest Park"],
      "region": "Taitung County"
    },
    {
      "name": "Chiayi",
      "country": "Taiwan",
      "continent": "Asia",
      "population": 270872,
      "is_capital": false,
      "city_rank": 4,
      "lat": 23.4801,
      "lon": 120.4491,
      "airport_codes": ["CYI"],
      "landmarks": ["Alishan", "Chiayi Tower", "Chiayi Park"],
      "region": "Chiayi County"
    },
    {
      "name": "Hue",
      "country": "Vietnam",
      "continent": "Asia",
      "population": 652572,
      "is_capital": false,
      "city_rank": 5,
      "lat": 16.4637,
      "lon": 107.5909,
      "airport_codes": ["HUI"],
      "landmarks": ["Imperial City", "Thien Mu Pagoda", "Perfume River"],
      "region": "Thừa Thiên-Huế"
    },
    {
      "name": "Nha Trang",
      "country": "Vietnam",
      "continent": "Asia",
      "population": 392279,
      "is_capital": false,
      "city_rank": 6,
      "lat": 12.2388,
      "lon": 109.1967,
      "airport_codes": ["CXR"],
      "landmarks": ["Nha Trang Beach", "Po Nagar Towers", "Hon Tre Island"],
      "region": "Khánh Hòa"
    },
    {
      "name": "Da Lat",
      "country": "Vietnam",
      "continent": "Asia",
      "population": 406105,
      "is_capital": false,
      "city_rank": 7,
      "lat": 11.9404,
      "lon": 108.4587,
      "airport_codes": ["DLI"],
      "landmarks": ["Xuan Huong Lake", "Valley of Love", "Crazy House"],
      "region": "Lâm Đồng"
    },
    {
      "name": "Shimla",
      "country": "India",
      "continent": "Asia",
      "population": 169578,
      "is_capital": true,
      "city_rank": 15,
      "lat": 31.1048,
      "lon": 77.1734,
      "airport_codes": ["SLV"],
      "landmarks": ["Viceregal Lodge", "Christ Church", "Mall Road"],
      "region": "Himachal Pradesh"
    },
    {
      "name": "Ranchi",
      "country": "India",
      "continent": "Asia",
      "population": 1073440,
      "is_capital": true,
      "city_rank": 16,
      "lat": 23.3441,
      "lon": 85.3096,
      "airport_codes": ["IXR"],
      "landmarks": ["Tagore Hill", "Ranchi Lake", "Jagannath Temple"],
      "region": "Jharkhand"
    },
    {
      "name": "Visakhapatnam",
      "country": "India",
      "continent": "Asia",
      "population": 2035922,
      "is_capital": false,
      "city_rank": 17,
      "lat": 17.6868,
      "lon": 83.2185,
      "airport_codes": ["VTZ"],
      "landmarks": ["Rushikonda Beach", "Kailasagiri", "Submarine Museum"],
      "region": "Andhra Pradesh"
    },
    {
      "name": "Vijayawada",
      "country": "India",
      "continent": "Asia",
      "population": 1033458,
      "is_capital": false,
      "city_rank": 18,
      "lat": 16.5062,
      "lon": 80.6480,
      "airport_codes": ["VGA"],
      "landmarks": ["Kanaka Durga Temple", "Prakasam Barrage", "Undavalli Caves"],
      "region": "Andhra Pradesh"
    },
    {
      "name": "Puducherry",
      "country": "India",
      "continent": "Asia",
      "population": 241773,
      "is_capital": true,
      "city_rank": 19,
      "lat": 11.9416,
      "lon": 79.8083,
      "airport_codes": ["PNY"],
      "landmarks": ["Auroville", "Promenade Beach", "Sri Aurobindo Ashram"],
      "region": "Puducherry"
    },
    {
      "name": "Panaji",
      "country": "India",
      "continent": "Asia",
      "population": 115000,
      "is_capital": true,
      "city_rank": 20,
      "lat": 15.4909,
      "lon": 73.8278,
      "airport_codes": ["GOI"],
      "landmarks": ["Church Square", "Fontainhas", "Adil Shah Palace"],
      "region": "Goa"
    },
    {
      "name": "Guwahati",
      "country": "India",
      "continent": "Asia",
      "population": 957352,
      "is_capital": false,
      "city_rank": 21,
      "lat": 26.1833,
      "lon": 91.7500,
      "airport_codes": ["GAU"],
      "landmarks": ["Kamakhya Temple", "Uzan Bazaar", "Fancy Bazaar"],
      "region": "Assam"
    },
    {
      "name": "Darjeeling",
      "country": "India",
      "continent": "Asia",
      "population": 118805,
      "is_capital": false,
      "city_rank": 22,
      "lat": 27.0360,
      "lon": 88.2627,
      "airport_codes": ["BAG"],
      "landmarks": ["Tiger Hill", "Darjeeling Himalayan Railway", "Observatory Hill"],
      "region": "West Bengal"
    },
    {
      "name": "Haifa",
      "country": "Israel",
      "continent": "Asia",
      "population": 285316,
      "is_capital": false,
      "city_rank": 3,
      "lat": 32.7940,
      "lon": 34.9896,
      "airport_codes": ["HFA"],
      "landmarks": ["Bahá'í Gardens", "Mount Carmel", "German Colony"],
      "region": "Haifa District"
    },
    {
      "name": "Irbid",
      "country": "Jordan",
      "continent": "Asia",
      "population": 502714,
      "is_capital": false,
      "city_rank": 2,
      "lat": 32.5556,
      "lon": 35.8500,
      "airport_codes": ["AMM"],
      "landmarks": ["Yarmouk University", "Irbid Castle", "Al-Hassan Sports City"],
      "region": "Irbid Governorate"
    },
    {
      "name": "Salalah",
      "country": "Oman",
      "continent": "Asia",
      "population": 331949,
      "is_capital": false,
      "city_rank": 2,
      "lat": 17.0151,
      "lon": 54.0924,
      "airport_codes": ["SLL"],
      "landmarks": ["Al Baleed Archaeological Park", "Wadi Darbat", "Taqah Castle"],
      "region": "Dhofar Governorate"
    },
    {
      "name": "Sohar",
      "country": "Oman",
      "continent": "Asia",
      "population": 221605,
      "is_capital": false,
      "city_rank": 3,
      "lat": 24.3645,
      "lon": 56.7468,
      "airport_codes": ["OHS"],
      "landmarks": ["Sohar Fort", "Sohar Port", "Sohar University"],
      "region": "Al Batinah North Governorate"
    },
    {
      "name": "Trabzon",
      "country": "Türkiye",
      "continent": "Asia",
      "population": 807903,
      "is_capital": false,
      "city_rank": 5,
      "lat": 41.0015,
      "lon": 39.7178,
      "airport_codes": ["TZX"],
      "landmarks": ["Hagia Sophia", "Trabzon Castle", "Sumela Monastery"],
      "region": "Black Sea Region"
    },
    {
      "name": "Çanakkale",
      "country": "Türkiye",
      "continent": "Asia",
      "population": 186116,
      "is_capital": false,
      "city_rank": 6,
      "lat": 40.1553,
      "lon": 26.4142,
      "airport_codes": ["CKZ"],
      "landmarks": ["Trojan Horse", "Çanakkale Martyrs' Memorial", "Gelibolu Peninsula"],
      "region": "Marmara Region"
    },
    {
      "name": "Kashan",
      "country": "Iran",
      "continent": "Asia",
      "population": 304487,
      "is_capital": false,
      "city_rank": 5,
      "lat": 33.9850,
      "lon": 51.4100,
      "airport_codes": ["IKA"],
      "landmarks": ["Fin Garden", "Agha Bozorg Mosque", "Tabatabaei House"],
      "region": "Isfahan Province"
    },
    {
      "name": "Tripoli",
      "country": "Lebanon",
      "continent": "Asia",
      "population": 530000,
      "is_capital": false,
      "city_rank": 2,
      "lat": 34.4367,
      "lon": 35.8344,
      "airport_codes": ["BEY"],
      "landmarks": ["Tripoli Castle", "Great Mosque", "Khan al-Khayyatin"],
      "region": "North Lebanon"
    },
    {
      "name": "Sousse",
      "country": "Tunisia",
      "continent": "Africa",
      "population": 221530,
      "is_capital": false,
      "city_rank": 2,
      "lat": 35.8333,
      "lon": 10.6333,
      "airport_codes": ["TUN"],
      "landmarks": ["Medina of Sousse", "Ribat of Sousse", "Port El Kantaoui"],
      "region": "Sousse Governorate"
    },
    {
      "name": "Constantine",
      "country": "Algeria",
      "continent": "Africa",
      "population": 448374,
      "is_capital": false,
      "city_rank": 3,
      "lat": 36.3650,
      "lon": 6.6147,
      "airport_codes": ["CZL"],
      "landmarks": ["Constantine Bridge", "Ahmed Bey Palace", "Emir Abdelkader Mosque"],
      "region": "Constantine Province"
    },
    {
      "name": "Tetouan",
      "country": "Morocco",
      "continent": "Africa",
      "population": 380787,
      "is_capital": false,
      "city_rank": 5,
      "lat": 35.5711,
      "lon": -5.3724,
      "airport_codes": ["TTU"],
      "landmarks": ["Medina of Tetouan", "Royal Palace", "Spanish Cathedral"],
      "region": "Tanger-Tetouan-Al Hoceima"
    },
    {
      "name": "Agadir",
      "country": "Morocco",
      "continent": "Africa",
      "population": 421844,
      "is_capital": false,
      "city_rank": 6,
      "lat": 30.4278,
      "lon": -9.5981,
      "airport_codes": ["AGA"],
      "landmarks": ["Agadir Beach", "Kasbah", "Valley of the Birds"],
      "region": "Souss-Massa"
    },
    {
      "name": "Gondar",
      "country": "Ethiopia",
      "continent": "Africa",
      "population": 323900,
      "is_capital": false,
      "city_rank": 3,
      "lat": 12.6000,
      "lon": 37.4667,
      "airport_codes": ["GDQ"],
      "landmarks": ["Fasil Ghebbi", "Debre Berhan Selassie", "Royal Enclosure"],
      "region": "Amhara"
    },
    {
      "name": "Bahir Dar",
      "country": "Ethiopia",
      "continent": "Africa",
      "population": 348429,
      "is_capital": false,
      "city_rank": 4,
      "lat": 11.6000,
      "lon": 37.3833,
      "airport_codes": ["BJR"],
      "landmarks": ["Lake Tana", "Blue Nile Falls", "Bahir Dar University"],
      "region": "Amhara"
    },
    {
      "name": "Arusha",
      "country": "Tanzania",
      "continent": "Africa",
      "population": 416442,
      "is_capital": false,
      "city_rank": 2,
      "lat": -3.3731,
      "lon": 36.6822,
      "airport_codes": ["ARK"],
      "landmarks": ["Arusha National Park", "Mount Meru", "Cultural Heritage Centre"],
      "region": "Arusha"
    },
    {
      "name": "East London",
      "country": "South Africa",
      "continent": "Africa",
      "population": 478676,
      "is_capital": false,
      "city_rank": 4,
      "lat": -33.0292,
      "lon": 27.8516,
      "airport_codes": ["ELS"],
      "landmarks": ["East London Museum", "Nahoon Beach", "Buffalo River"],
      "region": "Eastern Cape"
    },
    {
      "name": "Ndola",
      "country": "Zambia",
      "continent": "Africa",
      "population": 451246,
      "is_capital": false,
      "city_rank": 2,
      "lat": -12.9716,
      "lon": 28.6389,
      "airport_codes": ["NLA"],
      "landmarks": ["Copperbelt Museum", "Dag Hammarskjold Crash Site", "Slag Dump"],
      "region": "Copperbelt Province"
    }
  ]
}
